# NOAA Tide Gauge Stations List

metadata:
  source: "NOAA Tides and Currents"
  last_updated: "2024-03-01"
  description: "List of NOAA tide gauge stations used for high tide flooding analysis"
  coordinate_system: "WGS84 (EPSG:4326)"

stations:
  "1611400":
    name: "Nawiliwili"
    location:
      lat: 21.9544
      lon: -159.3561
  "1612340":
    name: "Honolulu"
    location:
      lat: 21.303333
      lon: -157.864528
  "1612401":
    name: "Pearl Harbor"
    location:
      lat: 21.3675
      lon: -157.963898
  "1612480":
    name: "Mokuoloe"
    location:
      lat: 21.433056
      lon: -157.79
  "1615680":
    name: "Kahului, Kahului Harbor"
    location:
      lat: 20.895
      lon: -156.469167
  "1617433":
    name: "Kawaihae"
    location:
      lat: 20.0366
      lon: -155.8294
  "1617760":
    name: "Hilo, Hilo Bay, Kuhio Bay"
    location:
      lat: 19.73028
      lon: -155.06
  "1619910":
    name: "Sand Island, Midway Islands"
    location:
      lat: 28.211667
      lon: -177.36
  "1630000":
    name: "Apra Harbor, Guam"
    location:
      lat: 13.44339
      lon: 144.656361
  "1631428":
    name: "Pago Bay, Guam"
    location:
      lat: 13.428333
      lon: 144.798889
  "1770000":
    name: "Pago Pago, American Samoa"
    location:
      lat: -14.28
      lon: -170.690002
  "1820000":
    name: "Kwajalein, Marshall Islands"
    location:
      lat: 8.7317
      lon: 167.736115
  "1890000":
    name: "Wake Island, Pacific Ocean"
    location:
      lat: 19.290556
      lon: 166.6175
  "2695535":
    name: "Bermuda Biological Station"
    location:
      lat: 32.369999
      lon: -64.695
  "2695540":
    name: "Bermuda, St. Georges Island"
    location:
      lat: 32.373306
      lon: -64.703306
  "8311030":
    name: "Ogdensburg"
    location:
      lat: 44.702778
      lon: -75.494446
  "8311062":
    name: "Alexandria Bay"
    location:
      lat: 44.33111
      lon: -75.934528
  "8410140":
    name: "Eastport"
    location:
      lat: 44.904598
      lon: -66.982903
  "8411060":
    name: "Cutler Farris Wharf"
    location:
      lat: 44.6567
      lon: -67.209999
  "8413320":
    name: "Bar Harbor"
    location:
      lat: 44.392194
      lon: -68.204278
  "8418150":
    name: "Portland"
    location:
      lat: 43.65806
      lon: -70.24417
  "8419870":
    name: "Seavey Island"
    location:
      lat: 43.07972
      lon: -70.741
  "8443970":
    name: "Boston"
    location:
      lat: 42.3539
      lon: -71.05028
  "8447386":
    name: "Fall River"
    location:
      lat: 41.7043
      lon: -71.164101
  "8447435":
    name: "Chatham"
    location:
      lat: 41.688499
      lon: -69.9511
  "8447636":
    name: "New Bedford Harbor"
    location:
      lat: 41.621111
      lon: -70.913611
  "8447930":
    name: "Woods Hole"
    location:
      lat: 41.523613
      lon: -70.671112
  "8449130":
    name: "Nantucket Island"
    location:
      lat: 41.285
      lon: -70.096703
  "8452660":
    name: "Newport"
    location:
      lat: 41.504333
      lon: -71.326139
  "8452944":
    name: "Conimicut Light"
    location:
      lat: 41.717111
      lon: -71.345167
  "8454000":
    name: "Providence"
    location:
      lat: 41.807167
      lon: -71.400667
  "8454049":
    name: "Quonset Point"
    location:
      lat: 41.58694
      lon: -71.41
  "8461490":
    name: "New London"
    location:
      lat: 41.371667
      lon: -72.095556
  "8465705":
    name: "New Haven"
    location:
      lat: 41.283333
      lon: -72.908333
  "8467150":
    name: "Bridgeport"
    location:
      lat: 41.175819
      lon: -73.183969
  "8510560":
    name: "Montauk"
    location:
      lat: 41.048333
      lon: -71.959444
  "8516945":
    name: "Kings Point"
    location:
      lat: 40.810299
      lon: -73.7649
  "8518750":
    name: "The Battery"
    location:
      lat: 40.700556
      lon: -74.014167
  "8518962":
    name: "Turkey Point Hudson River NERRS"
    location:
      lat: 42.014167
      lon: -73.939167
  "8519483":
    name: "Bergen Point West Reach"
    location:
      lat: 40.6391
      lon: -74.146306
  "8531680":
    name: "Sandy Hook"
    location:
      lat: 40.4669
      lon: -74.009399
  "8534720":
    name: "Atlantic City"
    location:
      lat: 39.356667
      lon: -74.418053
  "8536110":
    name: "Cape May"
    location:
      lat: 38.9683
      lon: -74.959999
  "8537121":
    name: "Ship John Shoal"
    location:
      lat: 39.305389
      lon: -75.376678
  "8539094":
    name: "Burlington, Delaware River"
    location:
      lat: 40.081699
      lon: -74.869698
  "8540433":
    name: "Marcus Hook"
    location:
      lat: 39.811806
      lon: -75.4095
  "8545240":
    name: "Philadelphia"
    location:
      lat: 39.933056
      lon: -75.141981
  "8546252":
    name: "Bridesburg"
    location:
      lat: 39.979683
      lon: -75.079317
  "8548989":
    name: "Newbold"
    location:
      lat: 40.137333
      lon: -74.751833
  "8551762":
    name: "Delaware City"
    location:
      lat: 39.582194
      lon: -75.588972
  "8551910":
    name: "Reedy Point"
    location:
      lat: 39.558333
      lon: -75.571944
  "8555889":
    name: "Brandywine Shoal Light"
    location:
      lat: 38.987
      lon: -75.113
  "8557380":
    name: "Lewes"
    location:
      lat: 38.782833
      lon: -75.119278
  "8570283":
    name: "Ocean City Inlet"
    location:
      lat: 38.328267
      lon: -75.091086
  "8571421":
    name: "Bishops Head"
    location:
      lat: 38.22
      lon: -76.038333
  "8571892":
    name: "Cambridge"
    location:
      lat: 38.5725
      lon: -76.061667
  "8573364":
    name: "Tolchester Beach"
    location:
      lat: 39.213444
      lon: -76.244556
  "8573927":
    name: "Chesapeake City"
    location:
      lat: 39.526667
      lon: -75.81
  "8574680":
    name: "Baltimore"
    location:
      lat: 39.27
      lon: -76.5783
  "8575512":
    name: "Annapolis"
    location:
      lat: 38.9833
      lon: -76.4816
  "8577330":
    name: "Solomons Island"
    location:
      lat: 38.3167
      lon: -76.451698
  "8594900":
    name: "Washington"
    location:
      lat: 38.873
      lon: -77.0217
  "8631044":
    name: "Wachapreague"
    location:
      lat: 37.607778
      lon: -75.685833
  "8632200":
    name: "Kiptopeke"
    location:
      lat: 37.165278
      lon: -75.988333
  "8635027":
    name: "Dahlgren"
    location:
      lat: 38.319753
      lon: -77.036597
  "8635750":
    name: "Lewisetta"
    location:
      lat: 37.996389
      lon: -76.465556
  "8636580":
    name: "Windmill Point"
    location:
      lat: 37.6155
      lon: -76.289778
  "8637689":
    name: "Yorktown USCG Training Center"
    location:
      lat: 37.2265
      lon: -76.478806
  "8638610":
    name: "Sewells Point"
    location:
      lat: 36.942778
      lon: -76.328611
  "8638901":
    name: "CBBT, Chesapeake Channel"
    location:
      lat: 37.032902
      lon: -76.083298
  "8639348":
    name: "Money Point"
    location:
      lat: 36.778194
      lon: -76.301861
  "8651370":
    name: "Duck"
    location:
      lat: 36.1833
      lon: -75.746696
  "8652587":
    name: "Oregon Inlet Marina"
    location:
      lat: 35.795694
      lon: -75.548194
  "8654467":
    name: "USCG Station Hatteras"
    location:
      lat: 35.208611
      lon: -75.704194
  "8656483":
    name: "Beaufort, Duke Marine Lab"
    location:
      lat: 34.7175
      lon: -76.671111
  "8658120":
    name: "Wilmington"
    location:
      lat: 34.2275
      lon: -77.953611
  "8658163":
    name: "Wrightsville Beach"
    location:
      lat: 34.213333
      lon: -77.786667
  "8661070":
    name: "Springmaid Pier"
    location:
      lat: 33.654999
      lon: -78.918297
  "8665530":
    name: "Charleston"
    location:
      lat: 32.775
      lon: -79.923889
  "8670870":
    name: "Fort Pulaski"
    location:
      lat: 32.034694
      lon: -80.903028
  "8679598":
    name: "Kings Bay MSF Pier"
    location:
      lat: 30.778099
      lon: -81.491402
  "8720030":
    name: "Fernandina Beach"
    location:
      lat: 30.671356
      lon: -81.465842
  "8720218":
    name: "Mayport (Bar Pilots Dock)"
    location:
      lat: 30.398167
      lon: -81.427889
  "8720219":
    name: "Dames Point"
    location:
      lat: 30.387222
      lon: -81.559166
  "8720226":
    name: "Southbank Riverwalk, St Johns River"
    location:
      lat: 30.320499
      lon: -81.659058
  "8720357":
    name: "I-295 Buckman Bridge"
    location:
      lat: 30.192417
      lon: -81.69
  "8721604":
    name: "Trident Pier, Port Canaveral"
    location:
      lat: 28.415833
      lon: -80.593056
  "8722670":
    name: "Lake Worth Pier, Atlantic Ocean"
    location:
      lat: 26.612778
      lon: -80.034167
  "8722956":
    name: "South Port Everglades"
    location:
      lat: 26.081667
      lon: -80.116667
  "8723214":
    name: "Virginia Key"
    location:
      lat: 25.731667
      lon: -80.161667
  "8723970":
    name: "Vaca Key, Florida Bay"
    location:
      lat: 24.711
      lon: -81.1065
  "8724580":
    name: "Key West"
    location:
      lat: 24.550833
      lon: -81.808333
  "8725114":
    name: "Naples Bay, North"
    location:
      lat: 26.1367
      lon: -81.7883
  "8725520":
    name: "Fort Myers"
    location:
      lat: 26.648
      lon: -81.871
  "8726384":
    name: "Port Manatee"
    location:
      lat: 27.6387
      lon: -82.562103
  "8726520":
    name: "St. Petersburg"
    location:
      lat: 27.760599
      lon: -82.6269
  "8726607":
    name: "Old Port Tampa"
    location:
      lat: 27.8578
      lon: -82.552803
  "8726674":
    name: "East Bay"
    location:
      lat: 27.923056
      lon: -82.421389
  "8726724":
    name: "Clearwater Beach"
    location:
      lat: 27.978333
      lon: -82.831667
  "8727520":
    name: "Cedar Key"
    location:
      lat: 29.135
      lon: -83.0317
  "8728690":
    name: "Apalachicola"
    location:
      lat: 29.724444
      lon: -84.980556
  "8729108":
    name: "Panama City"
    location:
      lat: 30.149722
      lon: -85.664444
  "8729210":
    name: "Panama City Beach"
    location:
      lat: 30.21375
      lon: -85.878583
  "8729840":
    name: "Pensacola"
    location:
      lat: 30.4044
      lon: -87.211197
  "8735180":
    name: "Dauphin Island"
    location:
      lat: 30.250278
      lon: -88.075
  "8735391":
    name: "Dog River Bridge"
    location:
      lat: 30.565278
      lon: -88.088056
  "8735523":
    name: "East Fowl River Bridge"
    location:
      lat: 30.443701
      lon: -88.113899
  "8736897":
    name: "Coast Guard Sector Mobile"
    location:
      lat: 30.6495
      lon: -88.058111
  "8737048":
    name: "Mobile State Docks"
    location:
      lat: 30.70461
      lon: -88.03961
  "8737138":
    name: "Chickasaw Creek"
    location:
      lat: 30.7819
      lon: -88.07361
  "8738043":
    name: "West Fowl River Bridge"
    location:
      lat: 30.3766
      lon: -88.1586
  "8739803":
    name: "Bayou La Batre Bridge"
    location:
      lat: 30.40625
      lon: -88.247806
  "8741533":
    name: "Pascagoula NOAA Lab"
    location:
      lat: 30.367778
      lon: -88.563056
  "8747437":
    name: "Bay Waveland Yacht Club"
    location:
      lat: 30.326342
      lon: -89.3258
  "8760721":
    name: "Pilottown"
    location:
      lat: 29.179306
      lon: -89.258833
  "8760922":
    name: "Pilots Station East, S.W. Pass"
    location:
      lat: 28.932222
      lon: -89.4075
  "8761305":
    name: "Shell Beach"
    location:
      lat: 29.8683
      lon: -89.673
  "8761724":
    name: "Grand Isle"
    location:
      lat: 29.263333
      lon: -89.956667
  "8761927":
    name: "New Canal Station"
    location:
      lat: 30.027222
      lon: -90.113333
  "8761955":
    name: "Carrollton"
    location:
      lat: 29.9329
      lon: -90.135472
  "8762075":
    name: "Port Fourchon, Belle Pass"
    location:
      lat: 29.114167
      lon: -90.199167
  "8762482":
    name: "West Bank 1, Bayou Gauche"
    location:
      lat: 29.788611
      lon: -90.420278
  "8764044":
    name: "Berwick, Atchafalaya River"
    location:
      lat: 29.6675
      lon: -91.237611
  "8764227":
    name: "LAWMA, Amerada Pass"
    location:
      lat: 29.4496
      lon: -91.338097
  "8764314":
    name: "Eugene Island, North of, Atchafalaya Bay"
    location:
      lat: 29.3675
      lon: -91.3839
  "8766072":
    name: "Freshwater Canal Locks"
    location:
      lat: 29.551667
      lon: -92.305278
  "8767816":
    name: "Lake Charles"
    location:
      lat: 30.223611
      lon: -93.221667
  "8767961":
    name: "Bulk Terminal"
    location:
      lat: 30.1903
      lon: -93.300697
  "8768094":
    name: "Calcasieu Pass"
    location:
      lat: 29.768167
      lon: -93.342889
  "8770475":
    name: "Port Arthur"
    location:
      lat: 29.866699
      lon: -93.93
  "8770520":
    name: "Rainbow Bridge"
    location:
      lat: 29.981194
      lon: -93.884694
  "8770613":
    name: "Morgans Point, Barbours Cut"
    location:
      lat: 29.681667
      lon: -94.985
  "8770777":
    name: "Manchester"
    location:
      lat: 29.726299
      lon: -95.2658
  "8770808":
    name: "High Island"
    location:
      lat: 29.59472
      lon: -94.39028
  "8770822":
    name: "Texas Point, Sabine Pass"
    location:
      lat: 29.689301
      lon: -93.841797
  "8770971":
    name: "Rollover Pass"
    location:
      lat: 29.514999
      lon: -94.513298
  "8771013":
    name: "Eagle Point, Galveston Bay"
    location:
      lat: 29.481306
      lon: -94.917253
  "8771341":
    name: "Galveston Bay Entrance, North Jetty"
    location:
      lat: 29.357461
      lon: -94.724725
  "8771367":
    name: "Sabine Offshore Light"
    location:
      lat: 29.469
      lon: -93.720001
  "8771450":
    name: "Galveston Pier 21"
    location:
      lat: 29.31
      lon: -94.793306
  "8771486":
    name: "Galveston Railroad Bridge"
    location:
      lat: 29.302583
      lon: -94.897083
  "8771972":
    name: "San Luis Pass"
    location:
      lat: 29.080556
      lon: -95.130833
  "8772471":
    name: "Freeport Harbor"
    location:
      lat: 28.935699
      lon: -95.294197
  "8772985":
    name: "Sargent"
    location:
      lat: 28.771389
      lon: -95.6175
  "8773037":
    name: "Seadrift"
    location:
      lat: 28.4069
      lon: -96.712402
  "8773146":
    name: "Matagorda City"
    location:
      lat: 28.71
      lon: -95.914
  "8773259":
    name: "Port Lavaca"
    location:
      lat: 28.6406
      lon: -96.609802
  "8773701":
    name: "Port O'Connor"
    location:
      lat: 28.4517
      lon: -96.388298
  "8773767":
    name: "Matagorda Bay Entrance Channel"
    location:
      lat: 28.426901
      lon: -96.330101
  "8774230":
    name: "Aransas Wildlife Refuge"
    location:
      lat: 28.2283
      lon: -96.794998
  "8774770":
    name: "Rockport"
    location:
      lat: 28.021667
      lon: -97.046667
  "8775132":
    name: "La Quinta Channel North"
    location:
      lat: 27.879167
      lon: -97.286111
  "8775222":
    name: "Viola Turning Basin"
    location:
      lat: 27.8461
      lon: -97.520699
  "8775237":
    name: "Port Aransas"
    location:
      lat: 27.839756
      lon: -97.072767
  "8775241":
    name: "Aransas, Aransas Pass"
    location:
      lat: 27.836599
      lon: -97.039101
  "8775244":
    name: "Nueces Bay"
    location:
      lat: 27.8328
      lon: -97.485901
  "8775283":
    name: "Enbridge, Ingleside"
    location:
      lat: 27.818611
      lon: -97.208944
  "8775296":
    name: "USS Lexington, Corpus Christi Bay"
    location:
      lat: 27.811694
      lon: -97.39
  "8775792":
    name: "Packery Channel"
    location:
      lat: 27.633301
      lon: -97.236702
  "8776139":
    name: "S. Bird Island"
    location:
      lat: 27.484361
      lon: -97.318111
  "8776604":
    name: "Baffin Bay"
    location:
      lat: 27.297
      lon: -97.405167
  "8777812":
    name: "Rincon Del San Jose"
    location:
      lat: 26.801194
      lon: -97.4706
  "8778490":
    name: "Port Mansfield"
    location:
      lat: 26.557639
      lon: -97.425722
  "8779280":
    name: "Realitos Peninsula"
    location:
      lat: 26.2625
      lon: -97.285278
  "8779748":
    name: "South Padre Island CG Station"
    location:
      lat: 26.072472
      lon: -97.166861
  "8779749":
    name: "SPI Brazos Santiago"
    location:
      lat: 26.0675
      lon: -97.154722
  "8779770":
    name: "Port Isabel"
    location:
      lat: 26.061167
      lon: -97.215528
  "9014070":
    name: "Algonac"
    location:
      lat: 42.621113
      lon: -82.526665
  "9014080":
    name: "St. Clair State Police"
    location:
      lat: 42.812222
      lon: -82.485558
  "9014087":
    name: "Dry Dock"
    location:
      lat: 42.945278
      lon: -82.443333
  "9014090":
    name: "Mouth of the Black River"
    location:
      lat: 42.974724
      lon: -82.418892
  "9014098":
    name: "Fort Gratiot"
    location:
      lat: 43.0069
      lon: -82.4225
  "9034052":
    name: "St Clair Shores"
    location:
      lat: 42.473222
      lon: -82.87925
  "9044020":
    name: "Gibraltar"
    location:
      lat: 42.090861
      lon: -83.186
  "9044030":
    name: "Wyandotte"
    location:
      lat: 42.202306
      lon: -83.1475
  "9044036":
    name: "Fort Wayne"
    location:
      lat: 42.298914
      lon: -83.09263
  "9044049":
    name: "Windmill Point"
    location:
      lat: 42.357778
      lon: -82.929944
  "9052000":
    name: "Cape Vincent"
    location:
      lat: 44.13028
      lon: -76.332
  "9052030":
    name: "Oswego"
    location:
      lat: 43.46417
      lon: -76.51183
  "9052058":
    name: "Rochester"
    location:
      lat: 43.26903
      lon: -77.62575
  "9052076":
    name: "Olcott"
    location:
      lat: 43.33839
      lon: -78.7273
  "9063007":
    name: "Ashland Ave"
    location:
      lat: 43.1
      lon: -79.059917
  "9063012":
    name: "Buffalo"
    location:
      lat: 42.877778
      lon: -78.890278
  "9063020":
    name: "Erie"
    location:
      lat: 42.153611
      lon: -80.091667
  "9063028":
    name: "Fairport"
    location:
      lat: 41.758889
      lon: -81.280833
  "9063038":
    name: "Ashtabula"
    location:
      lat: 41.918889
      lon: -80.798889
  "9063053":
    name: "Cleveland"
    location:
      lat: 41.541667
      lon: -81.635
  "9063063":
    name: "Marblehead"
    location:
      lat: 41.544167
      lon: -82.731667
  "9063079":
    name: "Toledo"
    location:
      lat: 41.693611
      lon: -83.471944
  "9063085":
    name: "Fermi Power Plant"
    location:
      lat: 41.96
      lon: -83.256667
  "9063090":
    name: "Gibraltar"
    location:
      lat: 42.090833
      lon: -83.186111
  "9075014":
    name: "Ludington"
    location:
      lat: 43.947222
      lon: -86.441667
  "9075035":
    name: "Holland"
    location:
      lat: 42.773611
      lon: -86.2125
  "9075065":
    name: "Calumet Harbor"
    location:
      lat: 41.730556
      lon: -87.538889
  "9075080":
    name: "Michigan City"
    location:
      lat: 41.724444
      lon: -86.908889
  "9075099":
    name: "Kewaunee"
    location:
      lat: 44.463333
      lon: -87.5
  "9076024":
    name: "Sturgeon Bay Canal"
    location:
      lat: 44.794444
      lon: -87.313889
  "9076027":
    name: "Green Bay"
    location:
      lat: 44.541111
      lon: -88.006944
  "9076033":
    name: "Menominee"
    location:
      lat: 45.095278
      lon: -87.589722
  "9076060":
    name: "Port Inland"
    location:
      lat: 45.969722
      lon: -85.871944
  "9076070":
    name: "Mackinaw City"
    location:
      lat: 45.777222
      lon: -84.721944
  "9076080":
    name: "De Tour Village"
    location:
      lat: 45.991944
      lon: -83.898889
  "9076090":
    name: "Rock Cut"
    location:
      lat: 46.266667
      lon: -84.191667
  "9077004":
    name: "Point Iroquois"
    location:
      lat: 46.485
      lon: -84.633333
  "9087023":
    name: "Duluth"
    location:
      lat: 46.775
      lon: -92.091667
  "9087031":
    name: "Grand Marais"
    location:
      lat: 47.751111
      lon: -90.341111
  "9087044":
    name: "Two Harbors"
    location:
      lat: 47.016944
      lon: -91.671111
  "9087057":
    name: "Superior Entrance"
    location:
      lat: 46.716667
      lon: -92.0
  "9087068":
    name: "Superior Bay Entry Channel"
    location:
      lat: 46.691667
      lon: -92.008333
  "9087072":
    name: "Superior"
    location:
      lat: 46.716667
      lon: -92.066667
  "9087088":
    name: "Ontonagon"
    location:
      lat: 46.875
      lon: -89.325
  "9087096":
    name: "Marquette C.G."
    location:
      lat: 46.545833
      lon: -87.378333 